Time_________	Latitude_______	Longitude______	Altitude___	VelocityN_____	VelocityE_____	VelocityUp____	Q0______   	Q1=Roll___________	Q2=Pitch__________	Q3=Heading________	SigmaLat_______	SigmaLong______	SigmaH__   	SigmaVelN____	SigmaVelE____	SigmaVelU____	SigmaQ1________	SigmaQ2________	SigmaQ3________
483783.787450	 0.811945076289	 0.114596178108	410.506378	+2.504440e-004	-1.539364e-004	+6.134802e-005	0.000000	-2.7052604128e-003	-8.5521134315e-004	+6.2591171265e+000	 0.248470678926	 0.248085483909	0.252013	6.056004e-003	6.056448e-003	6.046925e-003	1.5053113748e-004	1.5161522606e-004	2.4863095023e-003
483784.787450	 0.811945076289	 0.114596178108	410.506317	+1.853180e-004	-4.177734e-005	+6.867357e-005	0.000000	-2.7052604128e-003	-8.5521134315e-004	+6.2591171265e+000	 0.248452991247	 0.248067840934	0.251995	6.056001e-003	6.056448e-003	6.046925e-003	1.5053138486e-004	1.5161506599e-004	2.4862894788e-003
483785.787450	 0.811945076289	 0.114596178108	410.506287	+1.147089e-004	+7.561359e-005	+3.875942e-005	0.000000	-2.7052604128e-003	-8.5521134315e-004	+6.2591171265e+000	 0.248452991247	 0.248067840934	0.251995	6.056001e-003	6.056448e-003	6.046925e-003	1.5053138486e-004	1.5161506599e-004	2.4862894788e-003
483786.787450	 0.811945076289	 0.114596178108	410.506287	+2.181842e-004	-6.938139e-005	+3.345139e-005	0.000000	-2.7052604128e-003	-8.5521134315e-004	+6.2591171265e+000	 0.248452991247	 0.248067840934	0.251995	6.056001e-003	6.056448e-003	6.046925e-003	1.5053138486e-004	1.5161506599e-004	2.4862894788e-003
483787.787450	 0.811945076289	 0.114596178108	410.506256	+1.632104e-004	-9.062805e-005	+1.576297e-005	0.000000	-2.7052604128e-003	-8.5521134315e-004	+6.2591171265e+000	 0.248452991247	 0.248067840934	0.251995	6.056001e-003	6.056448e-003	6.046925e-003	1.5053138486e-004	1.5161506599e-004	2.4862894788e-003
483788.787450	 0.811945076289	 0.114596178108	410.506256	+2.003265e-004	-9.758608e-005	+5.526238e-005	0.000000	-2.7052604128e-003	-8.5521134315e-004	+6.2591171265e+000	 0.248435333371	 0.248050227761	0.251977	6.056002e-003	6.056447e-003	6.046925e-003	1.5053164680e-004	1.5161492047e-004	2.4862692226e-003
483789.787450	 0.811945076289	 0.114596178108	410.506256	+2.995373e-004	-1.055270e-004	+1.275807e-004	0.000000	-2.7052604128e-003	-8.5521134315e-004	+6.2591171265e+000	 0.248435333371	 0.248050227761	0.251977	6.056002e-003	6.056447e-003	6.046925e-003	1.5053164680e-004	1.5161492047e-004	2.4862692226e-003
483790.787450	 0.811945076289	 0.114596178108	410.506256	+3.334404e-004	-9.245845e-005	+1.172877e-004	0.000000	-2.7052604128e-003	-8.5521134315e-004	+6.2591171265e+000	 0.248435333371	 0.248050227761	0.251977	6.056002e-003	6.056447e-003	6.046925e-003	1.5053164680e-004	1.5161492047e-004	2.4862692226e-003
483791.787450	 0.811945076289	 0.114596178108	410.506287	+1.551418e-004	-2.544174e-004	+9.959233e-005	0.000000	-2.7052604128e-003	-8.5521134315e-004	+6.2591171265e+000	 0.248435333371	 0.248050227761	0.251977	6.056002e-003	6.056447e-003	6.046925e-003	1.5053164680e-004	1.5161492047e-004	2.4862692226e-003
483792.787450	 0.811945076289	 0.114596178108	410.506348	+2.786244e-004	-2.822759e-006	+1.076943e-004	0.000000	-2.7052604128e-003	-8.5521134315e-004	+6.2591171265e+000	 0.248417750001	 0.248032689095	0.251959	6.056001e-003	6.056447e-003	6.046925e-003	1.5053189418e-004	1.5161476040e-004	2.4862491991e-003
483793.787450	 0.811945076289	 0.114596178108	410.506348	+2.000056e-004	+4.557274e-006	+7.330359e-005	0.000000	-2.7052604128e-003	-8.5521134315e-004	+6.2591171265e+000	 0.248417750001	 0.248032689095	0.251959	6.056001e-003	6.056447e-003	6.046925e-003	1.5053189418e-004	1.5161476040e-004	2.4862491991e-003
483794.787450	 0.811945076289	 0.114596178108	410.506378	+2.559040e-004	-8.769904e-005	+7.953796e-005	0.000000	-2.7052604128e-003	-8.5521134315e-004	+6.2591171265e+000	 0.248417750001	 0.248032689095	0.251959	6.056001e-003	6.056447e-003	6.046925e-003	1.5053189418e-004	1.5161476040e-004	2.4862491991e-003
483795.787500	 0.811945076289	 0.114596178108	410.506470	+2.466383e-004	-5.124788e-005	+1.353796e-004	0.000000	-2.7052604128e-003	-8.5521134315e-004	+6.2591171265e+000	 0.248417750001	 0.248032689095	0.251959	6.056001e-003	6.056447e-003	6.046925e-003	1.5053189418e-004	1.5161476040e-004	2.4862491991e-003
483796.787500	 0.811945076289	 0.114596178108	410.506500	+2.330015e-004	-2.327521e-004	+9.539091e-005	0.000000	-2.7052604128e-003	-8.5521134315e-004	+6.2591171265e+000	 0.248400181532	 0.248015165329	0.251941	6.056001e-003	6.056447e-003	6.046925e-003	1.5053214156e-004	1.5161460033e-004	2.4862289429e-003
483797.787500	 0.811945076289	 0.114596178108	410.506592	+5.542213e-005	-1.744501e-005	+1.319759e-004	0.000000	-2.7052604128e-003	-8.5521134315e-004	+6.2591171265e+000	 0.248400181532	 0.248015165329	0.251941	6.056001e-003	6.056447e-003	6.046925e-003	1.5053214156e-004	1.5161460033e-004	2.4862289429e-003
483798.787500	 0.811945076289	 0.114596178108	410.506653	+3.426007e-004	-1.137145e-004	+1.093274e-004	0.000000	-2.7052604128e-003	-8.5521134315e-004	+6.2591171265e+000	 0.248400181532	 0.248015165329	0.251941	6.056001e-003	6.056447e-003	6.046925e-003	1.5053214156e-004	1.5161460033e-004	2.4862289429e-003
483799.787500	 0.811945076289	 0.114596178108	410.506775	+3.557866e-004	-7.367891e-005	+9.461406e-005	0.000000	-2.7052604128e-003	-8.5521134315e-004	+6.2591171265e+000	 0.248400181532	 0.248015165329	0.251941	6.056001e-003	6.056447e-003	6.046925e-003	1.5053214156e-004	1.5161460033e-004	2.4862289429e-003
483800.787500	 0.811945076289	 0.114596178108	410.506866	+2.136752e-004	-2.848649e-005	+7.170712e-005	0.000000	-2.7052604128e-003	-8.5521134315e-004	+6.2591171265e+000	 0.248382672668	 0.247997686267	0.251923	6.056000e-003	6.056447e-003	6.046924e-003	1.5053240350e-004	1.5161444026e-004	2.4862086866e-003
483801.787500	 0.811945076289	 0.114596178108	410.506958	+3.750297e-004	-2.013530e-004	+7.180218e-005	0.000000	-2.7052604128e-003	-8.5521134315e-004	+6.2591171265e+000	 0.248382672668	 0.247997686267	0.251923	6.056000e-003	6.056447e-003	6.046924e-003	1.5053240350e-004	1.5161444026e-004	2.4862086866e-003
483802.787500	 0.811945076289	 0.114596178108	410.507111	-6.272853e-005	+6.647885e-005	+8.837743e-005	0.000000	-2.7052604128e-003	-8.5521134315e-004	+6.2591171265e+000	 0.248382672668	 0.247997686267	0.251923	6.056000e-003	6.056447e-003	6.046924e-003	1.5053240350e-004	1.5161444026e-004	2.4862086866e-003
483803.787500	 0.811945076289	 0.114596178108	410.507233	+4.771664e-005	-5.928738e-005	+7.941273e-005	0.000000	-2.7052604128e-003	-8.5521134315e-004	+6.2591171265e+000	 0.248365208507	 0.247980266809	0.251905	6.056002e-003	6.056446e-003	6.046924e-003	1.5053265088e-004	1.5161428018e-004	2.4861884303e-003
483804.787500	 0.811945076289	 0.114596178108	410.507385	+1.078474e-004	-6.891734e-005	+8.613653e-005	0.000000	-2.7052604128e-003	-8.5521134315e-004	+6.2591171265e+000	 0.248365208507	 0.247980266809	0.251905	6.056002e-003	6.056446e-003	6.046924e-003	1.5053265088e-004	1.5161428018e-004	2.4861884303e-003
483805.787500	 0.811945074826	 0.114596178108	410.507568	+3.090918e-004	-4.616934e-005	+3.471788e-005	0.000000	-2.7052604128e-003	-8.5521134315e-004	+6.2591171265e+000	 0.248365208507	 0.247980266809	0.251905	6.056002e-003	6.056446e-003	6.046924e-003	1.5053265088e-004	1.5161428018e-004	2.4861884303e-003
483806.787500	 0.811945074826	 0.114596178108	410.507751	+4.145472e-004	-2.388779e-004	+6.226419e-005	0.000000	-2.7052604128e-003	-8.5521134315e-004	+6.2591171265e+000	 0.248365208507	 0.247980266809	0.251905	6.056002e-003	6.056446e-003	6.046924e-003	1.5053265088e-004	1.5161428018e-004	2.4861884303e-003
483807.787500	 0.811945074826	 0.114596178108	410.507904	+8.097492e-005	+8.389097e-005	+8.400955e-005	0.000000	-2.7052604128e-003	-8.5521134315e-004	+6.2591171265e+000	 0.248347833753	 0.247962936759	0.251887	6.056000e-003	6.056445e-003	6.046924e-003	1.5053291281e-004	1.5161412011e-004	2.4861681741e-003
483808.787500	 0.811945074826	 0.114596178108	410.508087	-1.655048e-004	+1.843844e-004	+4.007713e-005	0.000000	-2.7052604128e-003	-8.5521134315e-004	+6.2591171265e+000	 0.248347833753	 0.247962936759	0.251887	6.056000e-003	6.056445e-003	6.046924e-003	1.5053291281e-004	1.5161412011e-004	2.4861681741e-003
483809.787500	 0.811945074826	 0.114596178108	410.508301	+2.697195e-004	-1.870691e-005	+7.829263e-005	0.000000	-2.7052604128e-003	-8.5521134315e-004	+6.2591171265e+000	 0.248347833753	 0.247962936759	0.251887	6.056000e-003	6.056445e-003	6.046924e-003	1.5053291281e-004	1.5161412011e-004	2.4861681741e-003
483810.787500	 0.811945074826	 0.114596178108	410.508514	+1.592987e-004	-4.998249e-005	+9.361552e-005	0.000000	-2.7052604128e-003	-8.5521134315e-004	+6.2591171265e+000	 0.248347833753	 0.247962936759	0.251887	6.056000e-003	6.056445e-003	6.046924e-003	1.5053291281e-004	1.5161412011e-004	2.4861681741e-003
483811.787500	 0.811945074826	 0.114596178108	410.508759	+1.917818e-004	-8.337014e-006	+8.758381e-005	0.000000	-2.7052604128e-003	-8.5521134315e-004	+6.2591171265e+000	 0.248330458999	 0.247945606709	0.251869	6.055999e-003	6.056446e-003	6.046924e-003	1.5053317475e-004	1.5161396004e-004	2.4861479178e-003
483812.787500	 0.811945074826	 0.114596178108	410.509003	+2.798924e-004	-3.181583e-005	+7.238960e-005	0.000000	-2.7052604128e-003	-8.5521134315e-004	+6.2591171265e+000	 0.248330458999	 0.247945606709	0.251869	6.055999e-003	6.056446e-003	6.046924e-003	1.5053317475e-004	1.5161396004e-004	2.4861479178e-003
483813.787500	 0.811945074826	 0.114596178108	410.509247	+1.297898e-004	+1.380020e-004	+3.895888e-005	0.000000	-2.7052604128e-003	-8.5521134315e-004	+6.2591171265e+000	 0.248330458999	 0.247945606709	0.251869	6.055999e-003	6.056446e-003	6.046924e-003	1.5053317475e-004	1.5161396004e-004	2.4861479178e-003
483814.787500	 0.811945074826	 0.114596178108	410.509460	+9.480385e-004	-1.139369e-004	+4.900011e-005	0.000000	-2.6878069621e-003	-8.5521134315e-004	+6.2591171265e+000	 0.248330458999	 0.247945606709	0.251869	6.055999e-003	6.056446e-003	6.046924e-003	1.5053317475e-004	1.5161396004e-004	2.4861479178e-003
483815.787500	 0.811945074826	 0.114596178108	410.509735	+5.862409e-004	+2.111666e-004	+1.111409e-004	0.000000	-2.6878069621e-003	-8.5521134315e-004	+6.2591171265e+000	 0.248389735818	 0.248004570603	0.251932	6.055998e-003	6.056445e-003	6.046925e-003	1.5053343668e-004	1.5161381452e-004	2.4861276615e-003
483816.787500	 0.811945074826	 0.114596178108	410.510010	+5.192502e-004	-4.876174e-004	+4.260573e-005	0.000000	-2.6878069621e-003	-8.5521134315e-004	+6.2591171265e+000	 0.248389735818	 0.248004570603	0.251932	6.055998e-003	6.056445e-003	6.046925e-003	1.5053343668e-004	1.5161381452e-004	2.4861276615e-003
483817.787500	 0.811945074826	 0.114596178108	410.510254	+4.222990e-004	-9.775819e-005	+3.497508e-005	0.000000	-2.6878069621e-003	-8.5521134315e-004	+6.2591171265e+000	 0.248389735818	 0.248004570603	0.251932	6.055998e-003	6.056445e-003	6.046925e-003	1.5053343668e-004	1.5161381452e-004	2.4861276615e-003
483818.787500	 0.811945074826	 0.114596178108	410.510498	+2.673230e-004	+4.820967e-005	+3.475533e-005	0.000000	-2.6878069621e-003	-8.5521134315e-004	+6.2591171265e+000	 0.248389735818	 0.248004570603	0.251932	6.055998e-003	6.056445e-003	6.046925e-003	1.5053343668e-004	1.5161381452e-004	2.4861276615e-003
483819.787500	 0.811945074826	 0.114596178108	410.510773	+3.248667e-004	-7.056557e-005	+7.641048e-005	0.000000	-2.6878069621e-003	-8.5521134315e-004	+6.2591171265e+000	 0.248372450471	 0.247987315059	0.251914	6.056001e-003	6.056446e-003	6.046925e-003	1.5053368406e-004	1.5161365445e-004	2.4861074053e-003
483820.787500	 0.811945074826	 0.114596178108	410.511078	+3.915909e-004	+8.724461e-005	+1.346251e-004	0.000000	-2.6878069621e-003	-8.5521134315e-004	+6.2591171265e+000	 0.248372450471	 0.247987315059	0.251914	6.056001e-003	6.056446e-003	6.046925e-003	1.5053368406e-004	1.5161365445e-004	2.4861074053e-003
483821.787500	 0.811945074826	 0.114596178108	410.511353	+2.367772e-004	+2.755438e-005	+4.489524e-005	0.000000	-2.6878069621e-003	-8.5521134315e-004	+6.2591171265e+000	 0.248372450471	 0.247987315059	0.251914	6.056001e-003	6.056446e-003	6.046925e-003	1.5053368406e-004	1.5161365445e-004	2.4861074053e-003
483822.787500	 0.811945074826	 0.114596178108	410.511627	+1.378931e-004	-1.058054e-004	+4.945750e-005	0.000000	-2.6878069621e-003	-8.5521134315e-004	+6.2591171265e+000	 0.248372450471	 0.247987315059	0.251914	6.056001e-003	6.056446e-003	6.046925e-003	1.5053368406e-004	1.5161365445e-004	2.4861074053e-003
483823.787500	 0.811945074826	 0.114596178108	410.511902	+8.319262e-005	-8.136837e-005	+9.036961e-005	0.000000	-2.6878069621e-003	-8.5521134315e-004	+6.2591171265e+000	 0.248355254531	 0.247970163822	0.251896	6.055999e-003	6.056446e-003	6.046925e-003	1.5053394600e-004	1.5161349438e-004	2.4860866833e-003
483824.787500	 0.811945074826	 0.114596178108	410.512146	+2.862954e-004	-7.435039e-005	+4.982357e-005	0.000000	-2.6878069621e-003	-8.5521134315e-004	+6.2591171265e+000	 0.248355254531	 0.247970163822	0.251896	6.055999e-003	6.056446e-003	6.046925e-003	1.5053394600e-004	1.5161349438e-004	2.4860866833e-003
483825.787500	 0.811945074826	 0.114596178108	410.512421	+3.264068e-004	+8.950836e-005	+3.734123e-005	0.000000	-2.6878069621e-003	-8.5521134315e-004	+6.2591171265e+000	 0.248355254531	 0.247970163822	0.251896	6.055999e-003	6.056446e-003	6.046925e-003	1.5053394600e-004	1.5161349438e-004	2.4860866833e-003
483826.787500	 0.811945074826	 0.114596178108	410.512695	+1.604475e-004	-6.054890e-006	+6.090346e-005	0.000000	-2.6878069621e-003	-8.5521134315e-004	+6.2591171265e+000	 0.248355254531	 0.247970163822	0.251896	6.055999e-003	6.056446e-003	6.046925e-003	1.5053394600e-004	1.5161349438e-004	2.4860866833e-003
483827.787550	 0.811945074826	 0.114596178108	410.513000	+1.884043e-004	-1.724841e-005	+9.989430e-005	0.000000	-2.6878069621e-003	-8.5521134315e-004	+6.2591171265e+000	 0.248338058591	 0.247953012586	0.251879	6.055995e-003	6.056445e-003	6.046925e-003	1.5053420793e-004	1.5161334886e-004	2.4860664271e-003
483828.787550	 0.811945074826	 0.114596178108	410.513275	+1.612187e-004	-3.904018e-005	+6.385881e-005	0.000000	-2.6878069621e-003	-8.5521134315e-004	+6.2591171265e+000	 0.248338058591	 0.247953012586	0.251879	6.055995e-003	6.056445e-003	6.046925e-003	1.5053420793e-004	1.5161334886e-004	2.4860664271e-003
483829.787550	 0.811945074826	 0.114596178108	410.513580	+2.216682e-004	+4.898968e-006	+2.149313e-005	0.000000	-2.6878069621e-003	-8.5521134315e-004	+6.2591171265e+000	 0.248338058591	 0.247953012586	0.251879	6.055995e-003	6.056445e-003	6.046925e-003	1.5053420793e-004	1.5161334886e-004	2.4860664271e-003
483830.787550	 0.811945074826	 0.114596178108	410.513855	+1.256970e-004	+1.281043e-004	+5.918405e-005	0.000000	-2.6878069621e-003	-8.5521134315e-004	+6.2591171265e+000	 0.248338058591	 0.247953012586	0.251879	6.055995e-003	6.056445e-003	6.046925e-003	1.5053420793e-004	1.5161334886e-004	2.4860664271e-003
483831.787550	 0.811945074826	 0.114596178108	410.514160	+1.965459e-004	+1.767140e-004	+4.866487e-005	0.000000	-2.6878069621e-003	-8.5521134315e-004	+6.2591171265e+000	 0.248320952058	 0.247935950756	0.251861	6.055999e-003	6.056445e-003	6.046925e-003	1.5053446987e-004	1.5161318879e-004	2.4860464036e-003
483832.787550	 0.811945073363	 0.114596178108	410.514465	+2.640580e-004	-1.419949e-004	+8.116389e-005	0.000000	-2.6878069621e-003	-8.5521134315e-004	+6.2591171265e+000	 0.248320952058	 0.247935950756	0.251861	6.055999e-003	6.056445e-003	6.046925e-003	1.5053446987e-004	1.5161318879e-004	2.4860464036e-003
483833.787550	 0.811945073363	 0.114596178108	410.514740	+7.729457e-005	-2.229855e-004	+5.565983e-005	0.000000	-2.6878069621e-003	-8.5521134315e-004	+6.2591171265e+000	 0.248320952058	 0.247935950756	0.251861	6.055999e-003	6.056445e-003	6.046925e-003	1.5053446987e-004	1.5161318879e-004	2.4860464036e-003
483834.787550	 0.811945073363	 0.114596178108	410.515045	+7.346206e-005	-1.138170e-004	+5.240427e-005	0.000000	-2.6878069621e-003	-8.5521134315e-004	+6.2591171265e+000	 0.248320952058	 0.247935950756	0.251861	6.055999e-003	6.056445e-003	6.046925e-003	1.5053446987e-004	1.5161318879e-004	2.4860464036e-003
483835.787550	 0.811945073363	 0.114596178108	410.515350	+2.963076e-004	-4.429483e-005	+6.142808e-005	0.000000	-2.6878069621e-003	-8.5521134315e-004	+6.2591171265e+000	 0.248303860426	 0.247918888927	0.251844	6.055999e-003	6.056444e-003	6.046925e-003	1.5053473180e-004	1.5161302872e-004	2.4860261474e-003
483836.787550	 0.811945073363	 0.114596178108	410.515686	+1.586443e-004	-2.992081e-005	+6.830844e-005	0.000000	-2.6878069621e-003	-8.5521134315e-004	+6.2591171265e+000	 0.248303860426	 0.247918888927	0.251844	6.055999e-003	6.056444e-003	6.046925e-003	1.5053473180e-004	1.5161302872e-004	2.4860261474e-003
483837.787550	 0.811945073363	 0.114596178108	410.516022	+3.965034e-004	-1.142862e-004	+7.021179e-005	0.000000	-2.6878069621e-003	-8.5521134315e-004	+6.2591171265e+000	 0.248303860426	 0.247918888927	0.251844	6.055999e-003	6.056444e-003	6.046925e-003	1.5053473180e-004	1.5161302872e-004	2.4860261474e-003
483838.787550	 0.811945073363	 0.114596178108	410.516357	+2.894145e-004	+4.306322e-005	+5.777414e-005	0.000000	-2.6878069621e-003	-8.5521134315e-004	+6.2591171265e+000	 0.248303860426	 0.247918888927	0.251844	6.055999e-003	6.056444e-003	6.046925e-003	1.5053473180e-004	1.5161302872e-004	2.4860261474e-003
483839.787550	 0.811945073363	 0.114596178108	410.516602	-3.158370e-006	-1.521945e-005	+4.251947e-005	0.000000	-2.6878069621e-003	-8.5521134315e-004	+6.2591171265e+000	 0.248286813498	 0.247901886702	0.251826	6.055997e-003	6.056444e-003	6.046924e-003	1.5053499374e-004	1.5161288320e-004	2.4860065896e-003
483840.787550	 0.811945073363	 0.114596178108	410.516876	+3.098003e-004	+8.078040e-005	+3.704402e-005	0.000000	-2.6878069621e-003	-8.5521134315e-004	+6.2591171265e+000	 0.248286813498	 0.247901886702	0.251826	6.055997e-003	6.056444e-003	6.046924e-003	1.5053499374e-004	1.5161288320e-004	2.4860065896e-003
483841.787550	 0.811945073363	 0.114596178108	410.517181	+3.289043e-004	-6.378626e-005	+7.506056e-005	0.000000	-2.6878069621e-003	-8.5521134315e-004	+6.2591347694e+000	 0.248286813498	 0.247901886702	0.251826	6.055997e-003	6.056444e-003	6.046924e-003	1.5053499374e-004	1.5161288320e-004	2.4860065896e-003
483842.787550	 0.811945073363	 0.114596178108	410.517456	+7.906471e-005	-7.157613e-005	+1.430586e-004	0.000000	-2.6878069621e-003	-8.5521134315e-004	+6.2591171265e+000	 0.248269811273	 0.247884929180	0.251809	6.055997e-003	6.056443e-003	6.046924e-003	1.5053525567e-004	1.5161272313e-004	2.4859870318e-003
483843.787550	 0.811945073363	 0.114596176645	410.517761	+2.179808e-004	+1.908145e-004	+6.148797e-005	0.000000	-2.7052604128e-003	-8.5521134315e-004	+6.2591171265e+000	 0.248269811273	 0.247884929180	0.251809	6.055997e-003	6.056443e-003	6.046924e-003	1.5053525567e-004	1.5161272313e-004	2.4859870318e-003
483844.787550	 0.811945073363	 0.114596176645	410.518036	+4.220796e-004	-1.664288e-005	+7.875296e-005	0.000000	-2.6878069621e-003	-8.5521134315e-004	+6.2591171265e+000	 0.248269811273	 0.247884929180	0.251809	6.055997e-003	6.056443e-003	6.046924e-003	1.5053525567e-004	1.5161272313e-004	2.4859870318e-003
483845.787550	 0.811945073363	 0.114596176645	410.518372	+2.148294e-004	-1.174680e-004	+1.966297e-004	0.000000	-2.7227136306e-003	-8.5521134315e-004	+6.2591347694e+000	 0.248269811273	 0.247884929180	0.251809	6.055997e-003	6.056443e-003	6.046924e-003	1.5053525567e-004	1.5161272313e-004	2.4859870318e-003
483846.787550	 0.811945073363	 0.114596176645	410.518524	+9.497668e-004	-3.379227e-004	+2.880328e-005	0.000000	-2.7401668485e-003	-8.5521134315e-004	+6.2591519356e+000	 0.248252898455	 0.247868046165	0.251792	6.055991e-003	6.056443e-003	6.046924e-003	1.5053551761e-004	1.5161257761e-004	2.4859672412e-003
483847.787550	 0.811945073363	 0.114596176645	410.518860	-8.248775e-005	+2.947351e-004	-1.048127e-005	0.000000	-2.6878069621e-003	-9.4247778179e-004	+3.2114058267e-003	 0.248252898455	 0.247868046165	0.251792	6.055991e-003	6.056443e-003	6.046924e-003	1.5053551761e-004	1.5161257761e-004	2.4859672412e-003
483848.787550	 0.811945073363	 0.114596176645	410.519043	+3.405061e-004	+2.088891e-004	+3.312016e-005	0.000000	-2.6878069621e-003	-9.2502450570e-004	+3.2114058267e-003	 0.248252898455	 0.247868046165	0.251792	6.055991e-003	6.056443e-003	6.046924e-003	1.5053551761e-004	1.5161257761e-004	2.4859672412e-003
483849.787550	 0.811945073363	 0.114596176645	410.519257	+1.917555e-004	+1.330184e-004	+2.980095e-005	0.000000	-2.6878069621e-003	-9.2502450570e-004	+3.2114058267e-003	 0.248252898455	 0.247868046165	0.251792	6.055991e-003	6.056443e-003	6.046924e-003	1.5053551761e-004	1.5161257761e-004	2.4859672412e-003
483850.787550	 0.811945073363	 0.114596176645	410.519531	+1.607170e-004	-3.567150e-005	+3.444891e-005	0.000000	-2.6703537442e-003	-9.2502450570e-004	+3.2114058267e-003	 0.248315051198	 0.247929856181	0.251857	6.086057e-003	6.086506e-003	6.076668e-003	1.5053180687e-004	1.5160915791e-004	2.4859400000e-003
483851.787550	 0.811945073363	 0.114596176645	410.519836	+2.510340e-004	-4.115140e-005	+6.759869e-005	0.000000	-2.6703537442e-003	-9.0757122962e-004	+3.2114058267e-003	 0.248315051198	 0.247929856181	0.251857	6.086057e-003	6.086506e-003	6.076668e-003	1.5053180687e-004	1.5160915791e-004	2.4859400000e-003
483852.787550	 0.811945073363	 0.114596176645	410.520142	+3.224341e-004	-1.363220e-005	+7.460136e-005	0.000000	-2.6703537442e-003	-9.0757122962e-004	+3.2114058267e-003	 0.248315051198	 0.247929856181	0.251857	6.086057e-003	6.086506e-003	6.076668e-003	1.5053180687e-004	1.5160915791e-004	2.4859400000e-003
483853.787550	 0.811945073363	 0.114596176645	410.520447	+1.900949e-004	-5.600482e-005	+8.384027e-005	0.000000	-2.6703537442e-003	-9.0757122962e-004	+3.2114058267e-003	 0.248315051198	 0.247929856181	0.251857	6.086057e-003	6.086506e-003	6.076668e-003	1.5053180687e-004	1.5160915791e-004	2.4859400000e-003
483854.787550	 0.811945073363	 0.114596176645	410.520782	+3.551628e-004	-1.205853e-004	+1.321881e-004	0.000000	-2.6878069621e-003	-9.2502450570e-004	+3.2114058267e-003	 0.248373940587	 0.247988447547	0.251919	6.056304e-003	6.056747e-003	6.046984e-003	1.5051636728e-004	1.5159437316e-004	2.4859043770e-003
483855.787550	 0.811945073363	 0.114596176645	410.521057	+2.997737e-004	-1.822246e-004	+4.529571e-005	0.000000	-2.6703537442e-003	-9.0757122962e-004	+3.2114058267e-003	 0.248373940587	 0.247988447547	0.251919	6.056304e-003	6.056747e-003	6.046984e-003	1.5051636728e-004	1.5159437316e-004	2.4859043770e-003
483856.787550	 0.811945073363	 0.114596176645	410.521393	+9.378039e-005	+3.005891e-006	+1.703572e-005	0.000000	-2.6703537442e-003	-9.0757122962e-004	+3.2114058267e-003	 0.248373940587	 0.247988447547	0.251919	6.056304e-003	6.056747e-003	6.046984e-003	1.5051636728e-004	1.5159437316e-004	2.4859043770e-003
483857.787550	 0.811945073363	 0.114596176645	410.521698	+2.467982e-004	+9.610582e-005	+5.414361e-005	0.000000	-2.6703537442e-003	-9.0757122962e-004	+3.2114058267e-003	 0.248373940587	 0.247988447547	0.251919	6.056304e-003	6.056747e-003	6.046984e-003	1.5051636728e-004	1.5159437316e-004	2.4859043770e-003
483858.787550	 0.811945073363	 0.114596176645	410.522034	+2.176845e-004	-5.452456e-005	+3.846155e-005	0.000000	-2.6703537442e-003	-9.0757122962e-004	+3.2114058267e-003	 0.248356729746	 0.247971281409	0.251901	6.056244e-003	6.056684e-003	6.046925e-003	1.5050002548e-004	1.5157865710e-004	2.4858682882e-003
483859.787550	 0.811945071900	 0.114596176645	410.522400	+2.966347e-004	-1.565767e-004	+8.686470e-005	0.000000	-2.6703537442e-003	-9.0757122962e-004	+3.2114058267e-003	 0.248356729746	 0.247971281409	0.251901	6.056244e-003	6.056684e-003	6.046925e-003	1.5050002548e-004	1.5157865710e-004	2.4858682882e-003
483860.787600	 0.811945071900	 0.114596176645	410.522736	+1.754048e-004	-9.222075e-005	+9.478827e-005	0.000000	-2.6703537442e-003	-9.0757122962e-004	+3.2114058267e-003	 0.248356729746	 0.247971281409	0.251901	6.056244e-003	6.056684e-003	6.046925e-003	1.5050002548e-004	1.5157865710e-004	2.4858682882e-003
483861.787550	 0.811945071900	 0.114596176645	410.523071	+2.787775e-004	+4.006741e-005	+6.089167e-005	0.000000	-2.6703537442e-003	-9.0757122962e-004	+3.2114058267e-003	 0.248356729746	 0.247971281409	0.251901	6.056244e-003	6.056684e-003	6.046925e-003	1.5050002548e-004	1.5157865710e-004	2.4858682882e-003
483862.787600	 0.811945071900	 0.114596176645	410.523438	+2.293483e-004	-1.267543e-004	+3.053321e-005	0.000000	-2.6703537442e-003	-9.0757122962e-004	+3.2114058267e-003	 0.248339608312	 0.247954204679	0.251884	6.056232e-003	6.056676e-003	6.046925e-003	1.5048410569e-004	1.5156336303e-004	2.4858310353e-003
483863.787600	 0.811945071900	 0.114596176645	410.523834	+2.532653e-004	-2.128621e-005	+7.208205e-005	0.000000	-2.6703537442e-003	-9.0757122962e-004	+3.2114058267e-003	 0.248339608312	 0.247954204679	0.251884	6.056232e-003	6.056676e-003	6.046925e-003	1.5048410569e-004	1.5156336303e-004	2.4858310353e-003
483864.787550	 0.811945071900	 0.114596176645	410.524231	+3.129224e-004	-4.223288e-005	+4.740444e-005	0.000000	-2.6703537442e-003	-9.0757122962e-004	+3.2114058267e-003	 0.248339608312	 0.247954204679	0.251884	6.056232e-003	6.056676e-003	6.046925e-003	1.5048410569e-004	1.5156336303e-004	2.4858310353e-003
483865.787600	 0.811945071900	 0.114596176645	410.524689	+2.321723e-004	+4.928510e-005	+8.562692e-005	0.000000	-2.6703537442e-003	-9.2502450570e-004	+3.2114058267e-003	 0.248339608312	 0.247954204679	0.251884	6.056232e-003	6.056676e-003	6.046925e-003	1.5048410569e-004	1.5156336303e-004	2.4858310353e-003
483866.787600	 0.811945071900	 0.114596176645	410.525177	+1.949194e-004	-1.831945e-005	+1.137790e-004	0.000000	-2.6878069621e-003	-9.2502450570e-004	+3.2114058267e-003	 0.248322486877	 0.247937127948	0.251866	6.056226e-003	6.056669e-003	6.046925e-003	1.5046868066e-004	1.5154854918e-004	2.4857942481e-003
483867.787600	 0.811945071900	 0.114596176645	410.525604	+2.101960e-004	-7.164334e-005	+6.895600e-005	0.000000	-2.6878069621e-003	-9.2502450570e-004	+3.2288590446e-003	 0.248322486877	 0.247937127948	0.251866	6.056226e-003	6.056669e-003	6.046925e-003	1.5046868066e-004	1.5154854918e-004	2.4857942481e-003
483868.787600	 0.811945071900	 0.114596176645	410.526031	+2.872696e-004	+2.189167e-006	-1.087651e-005	0.000000	-2.6703537442e-003	-9.2502450570e-004	+3.2114058267e-003	 0.248322486877	 0.247937127948	0.251866	6.056226e-003	6.056669e-003	6.046925e-003	1.5046868066e-004	1.5154854918e-004	2.4857942481e-003
483869.787600	 0.811945071900	 0.114596176645	410.526520	+3.325772e-004	+4.846268e-006	+6.369041e-005	0.000000	-2.6703537442e-003	-9.2502450570e-004	+3.2114058267e-003	 0.248322486877	 0.247937127948	0.251866	6.056226e-003	6.056669e-003	6.046925e-003	1.5046868066e-004	1.5154854918e-004	2.4857942481e-003
483870.787600	 0.811945071900	 0.114596176645	410.527039	+2.641593e-004	-6.810418e-005	+8.798946e-005	0.000000	-2.6878069621e-003	-9.0757122962e-004	+3.2288590446e-003	 0.248305469751	 0.247920140624	0.251849	6.056217e-003	6.056662e-003	6.046925e-003	1.5045373584e-004	1.5153421555e-004	2.4857579265e-003
483871.787600	 0.811945071900	 0.114596176645	410.527618	+3.281879e-004	-2.698369e-005	+1.066894e-004	0.000000	-2.6878069621e-003	-9.0757122962e-004	+3.2114058267e-003	 0.248305469751	 0.247920140624	0.251849	6.056217e-003	6.056662e-003	6.046925e-003	1.5045373584e-004	1.5153421555e-004	2.4857579265e-003
483872.787600	 0.811945071900	 0.114596176645	410.528137	+2.420527e-004	-2.630349e-004	+3.027182e-005	0.000000	-2.6878069621e-003	-9.0757122962e-004	+3.2288590446e-003	 0.248305469751	 0.247920140624	0.251849	6.056217e-003	6.056662e-003	6.046925e-003	1.5045373584e-004	1.5153421555e-004	2.4857579265e-003
483873.787600	 0.811945071900	 0.114596176645	410.528717	+2.199200e-004	-1.892339e-005	+9.564687e-005	0.000000	-2.6878069621e-003	-9.0757122962e-004	+3.2288590446e-003	 0.248305469751	 0.247920140624	0.251849	6.056217e-003	6.056662e-003	6.046925e-003	1.5045373584e-004	1.5153421555e-004	2.4857579265e-003
483874.787600	 0.811945071900	 0.114596176645	410.529266	+3.065118e-004	-2.388149e-004	+4.605820e-005	0.000000	-2.6878069621e-003	-9.0757122962e-004	+3.2288590446e-003	 0.248288437724	 0.247903168201	0.251832	6.056211e-003	6.056655e-003	6.046925e-003	1.5043925669e-004	1.5152033302e-004	2.4857220706e-003
483875.787600	 0.811945071900	 0.114596176645	410.529877	+3.666419e-004	+3.622208e-004	+4.073825e-005	0.000000	-2.6878069621e-003	-9.0757122962e-004	+3.2288590446e-003	 0.248288437724	 0.247903168201	0.251832	6.056211e-003	6.056655e-003	6.046925e-003	1.5043925669e-004	1.5152033302e-004	2.4857220706e-003
483876.787600	 0.811945071900	 0.114596176645	410.530426	+5.657935e-004	+2.086784e-005	-8.370603e-006	0.000000	-2.6703537442e-003	-9.0757122962e-004	+3.2114058267e-003	 0.248288437724	 0.247903168201	0.251832	6.056211e-003	6.056655e-003	6.046925e-003	1.5043925669e-004	1.5152033302e-004	2.4857220706e-003
483877.787600	 0.811945071900	 0.114596176645	410.531036	+2.566823e-004	-2.714914e-004	+6.237392e-006	0.000000	-2.6703537442e-003	-9.0757122962e-004	+3.2114058267e-003	 0.248288437724	 0.247903168201	0.251832	6.056211e-003	6.056655e-003	6.046925e-003	1.5043925669e-004	1.5152033302e-004	2.4857220706e-003
483878.787600	 0.811945071900	 0.114596176645	410.531647	+2.592246e-004	-1.088746e-004	-1.945501e-005	0.000000	-2.6703537442e-003	-9.0757122962e-004	+3.2114058267e-003	 0.248271480203	 0.247886240482	0.251814	6.056206e-003	6.056648e-003	6.046924e-003	1.5042522864e-004	1.5150687250e-004	2.4856857490e-003
483879.787600	 0.811945071900	 0.114596176645	410.532257	+3.836622e-004	-5.050580e-004	+2.657711e-005	0.000000	-2.6878069621e-003	-9.0757122962e-004	+3.2288590446e-003	 0.248271480203	 0.247886240482	0.251814	6.056206e-003	6.056648e-003	6.046924e-003	1.5042522864e-004	1.5150687250e-004	2.4856857490e-003
483880.787600	 0.811945071900	 0.114596176645	410.532928	+2.741823e-004	-2.767638e-005	+4.465796e-005	0.000000	-2.6703537442e-003	-9.0757122962e-004	+3.2288590446e-003	 0.248271480203	 0.247886240482	0.251814	6.056206e-003	6.056648e-003	6.046924e-003	1.5042522864e-004	1.5150687250e-004	2.4856857490e-003
483881.787600	 0.811945071900	 0.114596176645	410.533569	+2.235996e-004	+7.704168e-004	+7.014645e-005	0.000000	-2.7052604128e-003	-9.0757122962e-004	+3.2288590446e-003	 0.248254552484	 0.247869342566	0.251797	6.056199e-003	6.056640e-003	6.046924e-003	1.5041163715e-004	1.5149386309e-004	2.4856494274e-003
483882.787600	 0.811945071900	 0.114596176645	410.534241	+1.362840e-004	-2.432220e-004	+3.882963e-005	0.000000	-2.7227136306e-003	-9.0757122962e-004	+3.1939526089e-003	 0.248254552484	 0.247869342566	0.251797	6.056199e-003	6.056640e-003	6.046924e-003	1.5041163715e-004	1.5149386309e-004	2.4856494274e-003
483883.787600	 0.811945071900	 0.114596176645	410.534882	+2.264964e-004	-1.844702e-004	+7.294377e-005	0.000000	-2.7227136306e-003	-9.0757122962e-004	+3.1764991581e-003	 0.248254552484	 0.247869342566	0.251797	6.056199e-003	6.056640e-003	6.046924e-003	1.5041163715e-004	1.5149386309e-004	2.4856494274e-003
483884.787600	 0.811945071900	 0.114596176645	410.535583	+1.031253e-004	-4.771554e-005	+7.502417e-005	0.000000	-2.7227136306e-003	-9.0757122962e-004	+3.1764991581e-003	 0.248254552484	 0.247869342566	0.251797	6.056199e-003	6.056640e-003	6.046924e-003	1.5041163715e-004	1.5149386309e-004	2.4856494274e-003
483885.787600	 0.811945071900	 0.114596176645	410.536255	+3.871431e-004	+4.236809e-005	+6.185383e-005	0.000000	-2.7227136306e-003	-9.0757122962e-004	+3.1764991581e-003	 0.248237699270	 0.247852548957	0.251780	6.056191e-003	6.056634e-003	6.046924e-003	1.5039848222e-004	1.5148129023e-004	2.4856142700e-003
483886.787600	 0.811945071900	 0.114596176645	410.536896	-3.780684e-005	-3.692833e-004	-1.320686e-006	0.000000	-2.7227136306e-003	-9.0757122962e-004	+3.1939526089e-003	 0.248237699270	 0.247852548957	0.251780	6.056191e-003	6.056634e-003	6.046924e-003	1.5039848222e-004	1.5148129023e-004	2.4856142700e-003
483887.787600	 0.811945071900	 0.114596176645	410.537598	+2.187022e-004	+1.399388e-004	+3.173888e-005	0.000000	-2.7227136306e-003	-9.0757122962e-004	+3.1939526089e-003	 0.248237699270	 0.247852548957	0.251780	6.056191e-003	6.056634e-003	6.046924e-003	1.5039848222e-004	1.5148129023e-004	2.4856142700e-003
483888.787600	 0.811945071900	 0.114596176645	410.538269	+2.224856e-004	-2.231485e-005	+6.391208e-005	0.000000	-2.6878069621e-003	-9.0757122962e-004	+3.2114058267e-003	 0.248237699270	 0.247852548957	0.251780	6.056191e-003	6.056634e-003	6.046924e-003	1.5039848222e-004	1.5148129023e-004	2.4856142700e-003
483889.787600	 0.811945070437	 0.114596176645	410.539001	+2.086229e-004	-2.112549e-004	+4.031518e-005	0.000000	-2.6703537442e-003	-9.0757122962e-004	+3.2288590446e-003	 0.248220875859	 0.247835755348	0.251762	6.056190e-003	6.056629e-003	6.046924e-003	1.5038576385e-004	1.5146912483e-004	2.4855795782e-003
483890.787600	 0.811945070437	 0.114596176645	410.539703	+3.043321e-004	-1.012688e-004	+5.958310e-005	0.000000	-2.6703537442e-003	-9.0757122962e-004	+3.2288590446e-003	 0.248220875859	 0.247835755348	0.251762	6.056190e-003	6.056629e-003	6.046924e-003	1.5038576385e-004	1.5146912483e-004	2.4855795782e-003
483891.787600	 0.811945070437	 0.114596175182	410.540405	+5.375591e-004	-1.843186e-005	+2.726826e-005	0.000000	-2.6703537442e-003	-9.0757122962e-004	+3.2288590446e-003	 0.248220875859	 0.247835755348	0.251762	6.056190e-003	6.056629e-003	6.046924e-003	1.5038576385e-004	1.5146912483e-004	2.4855795782e-003
483892.787600	 0.811945070437	 0.114596175182	410.541138	+4.954958e-004	-1.087251e-004	+5.160306e-005	0.000000	-2.6703537442e-003	-9.0757122962e-004	+3.2288590446e-003	 0.248220875859	 0.247835755348	0.251762	6.056190e-003	6.056629e-003	6.046924e-003	1.5038576385e-004	1.5146912483e-004	2.4855795782e-003
483893.787600	 0.811945070437	 0.114596175182	410.541870	+2.157473e-004	+4.711605e-005	+2.538660e-005	0.000000	-2.6703537442e-003	-9.0757122962e-004	+3.2114058267e-003	 0.248280569911	 0.247895151377	0.251825	6.056181e-003	6.056623e-003	6.046925e-003	1.5037340927e-004	1.5145733778e-004	2.4855427910e-003
483894.787650	 0.811945070437	 0.114596175182	410.542603	+1.781475e-004	+4.537670e-005	+4.686978e-005	0.000000	-2.6703537442e-003	-9.0757122962e-004	+3.2114058267e-003	 0.248280569911	 0.247895151377	0.251825	6.056181e-003	6.056623e-003	6.046925e-003	1.5037340927e-004	1.5145733778e-004	2.4855427910e-003
483895.787650	 0.811945070437	 0.114596175182	410.543335	+2.569761e-004	-1.070009e-004	+7.421385e-005	0.000000	-2.6703537442e-003	-9.0757122962e-004	+3.2288590446e-003	 0.248280569911	 0.247895151377	0.251825	6.056181e-003	6.056623e-003	6.046925e-003	1.5037340927e-004	1.5145733778e-004	2.4855427910e-003
483896.787650	 0.811945070437	 0.114596175182	410.544098	+2.719245e-004	+3.842088e-005	+1.049984e-004	0.000000	-2.6703537442e-003	-9.0757122962e-004	+3.2288590446e-003	 0.248280569911	 0.247895151377	0.251825	6.056181e-003	6.056623e-003	6.046925e-003	1.5037340927e-004	1.5145733778e-004	2.4855427910e-003
483897.787650	 0.811945070437	 0.114596175182	410.544830	+2.622567e-004	-2.557099e-005	+2.941608e-005	0.000000	-2.6703537442e-003	-9.0757122962e-004	+3.2288590446e-003	 0.248263821006	 0.247878432274	0.251808	6.056174e-003	6.056618e-003	6.046925e-003	1.5036143304e-004	1.5144589997e-004	2.4855067022e-003
483898.787650	 0.811945070437	 0.114596175182	410.545593	+3.267411e-004	-5.747907e-005	+8.406778e-006	0.000000	-2.6703537442e-003	-9.0757122962e-004	+3.2288590446e-003	 0.248263821006	 0.247878432274	0.251808	6.056174e-003	6.056618e-003	6.046925e-003	1.5036143304e-004	1.5144589997e-004	2.4855067022e-003
483899.787650	 0.811945070437	 0.114596175182	410.546356	+2.971568e-004	-3.075743e-005	+3.011342e-005	0.000000	-2.6703537442e-003	-9.0757122962e-004	+3.2288590446e-003	 0.248263821006	 0.247878432274	0.251808	6.056174e-003	6.056618e-003	6.046925e-003	1.5036143304e-004	1.5144589997e-004	2.4855067022e-003
483900.787650	 0.811945070437	 0.114596175182	410.547150	+2.357412e-004	-3.524746e-005	+1.057186e-004	0.000000	-2.6703537442e-003	-9.0757122962e-004	+3.2288590446e-003	 0.248263821006	 0.247878432274	0.251808	6.056174e-003	6.056618e-003	6.046925e-003	1.5036143304e-004	1.5144589997e-004	2.4855067022e-003
483901.787650	 0.811945070437	 0.114596175182	410.547913	+2.095336e-004	-1.053147e-004	+8.972325e-005	0.000000	-2.6703537442e-003	-9.0757122962e-004	+3.2288590446e-003	 0.248247146606	 0.247861787677	0.251791	6.056168e-003	6.056612e-003	6.046925e-003	1.5034983517e-004	1.5143484052e-004	2.4854710791e-003
483902.787650	 0.811945070437	 0.114596175182	410.548706	+2.929147e-004	-1.764872e-004	+1.080006e-004	0.000000	-2.6703537442e-003	-9.0757122962e-004	+3.2288590446e-003	 0.248247146606	 0.247861787677	0.251791	6.056168e-003	6.056612e-003	6.046925e-003	1.5034983517e-004	1.5143484052e-004	2.4854710791e-003
483903.787650	 0.811945070437	 0.114596175182	410.549500	+1.272347e-004	-2.424236e-004	+6.861657e-005	0.000000	-2.6703537442e-003	-9.0757122962e-004	+3.2288590446e-003	 0.248247146606	 0.247861787677	0.251791	6.056168e-003	6.056612e-003	6.046925e-003	1.5034983517e-004	1.5143484052e-004	2.4854710791e-003
483904.787650	 0.811945070437	 0.114596175182	410.550293	+8.525138e-005	-1.056965e-004	+4.719778e-005	0.000000	-2.6703537442e-003	-9.0757122962e-004	+3.2288590446e-003	 0.248247146606	 0.247861787677	0.251791	6.056168e-003	6.056612e-003	6.046925e-003	1.5034983517e-004	1.5143484052e-004	2.4854710791e-003
483905.787650	 0.811945070437	 0.114596175182	410.551086	+2.050008e-004	-6.923597e-006	+1.051501e-004	0.000000	-2.6703537442e-003	-9.0757122962e-004	+3.2288590446e-003	 0.248230472207	 0.247845172882	0.251774	6.056164e-003	6.056607e-003	6.046925e-003	1.5033861564e-004	1.5142414486e-004	2.4854359217e-003
483906.787650	 0.811945070437	 0.114596175182	410.551880	+1.914447e-004	-8.434231e-005	+6.559257e-005	0.000000	-2.6703537442e-003	-9.0757122962e-004	+3.2288590446e-003	 0.248230472207	 0.247845172882	0.251774	6.056164e-003	6.056607e-003	6.046925e-003	1.5033861564e-004	1.5142414486e-004	2.4854359217e-003
483907.787650	 0.811945070437	 0.114596175182	410.552704	+3.493470e-004	+1.668014e-005	+1.184833e-004	0.000000	-2.6703537442e-003	-9.0757122962e-004	+3.2288590446e-003	 0.248230472207	 0.247845172882	0.251774	6.056164e-003	6.056607e-003	6.046925e-003	1.5033861564e-004	1.5142414486e-004	2.4854359217e-003
483908.787650	 0.811945070437	 0.114596175182	410.553497	+2.424776e-004	-3.484374e-006	+9.883792e-005	0.000000	-2.6703537442e-003	-9.0757122962e-004	+3.2288590446e-003	 0.248230472207	 0.247845172882	0.251774	6.056164e-003	6.056607e-003	6.046925e-003	1.5033861564e-004	1.5142414486e-004	2.4854359217e-003
483909.787650	 0.811945070437	 0.114596175182	410.554230	+6.170030e-004	+9.812749e-005	+4.256480e-005	0.000000	-2.6703537442e-003	-9.0757122962e-004	+3.2288590446e-003	 0.248213902116	 0.247828632593	0.251757	6.056157e-003	6.056602e-003	6.046925e-003	1.5032774536e-004	1.5141378390e-004	2.4854005314e-003
483910.787650	 0.811945070437	 0.114596175182	410.554932	+4.870889e-004	-3.939286e-005	+5.150655e-005	0.000000	-2.6703537442e-003	-9.0757122962e-004	+3.2288590446e-003	 0.248213902116	 0.247828632593	0.251757	6.056157e-003	6.056602e-003	6.046925e-003	1.5032774536e-004	1.5141378390e-004	2.4854005314e-003
483911.787650	 0.811945070437	 0.114596175182	410.555634	+4.138848e-004	+3.528987e-006	+1.430614e-005	0.000000	-2.6703537442e-003	-9.0757122962e-004	+3.2288590446e-003	 0.248213902116	 0.247828632593	0.251757	6.056157e-003	6.056602e-003	6.046925e-003	1.5032774536e-004	1.5141378390e-004	2.4854005314e-003
483912.787650	 0.811945070437	 0.114596175182	410.556366	+3.268208e-004	+8.938316e-006	+3.846884e-005	0.000000	-2.6703537442e-003	-9.0757122962e-004	+3.2288590446e-003	 0.248213902116	 0.247828632593	0.251757	6.056157e-003	6.056602e-003	6.046925e-003	1.5032774536e-004	1.5141378390e-004	2.4854005314e-003
483913.787650	 0.811945070437	 0.114596175182	410.557037	+2.504132e-004	-1.060121e-005	+2.166888e-005	0.000000	-2.6703537442e-003	-9.0757122962e-004	+3.2288590446e-003	 0.248197317123	 0.247812092304	0.251740	6.056150e-003	6.056597e-003	6.046925e-003	1.5031722432e-004	1.5140375763e-004	2.4853658397e-003
483914.787650	 0.811945070437	 0.114596175182	410.557739	+2.170271e-004	-1.130156e-004	+5.213335e-005	0.000000	-2.6703537442e-003	-9.0757122962e-004	+3.2288590446e-003	 0.248197317123	 0.247812092304	0.251740	6.056150e-003	6.056597e-003	6.046925e-003	1.5031722432e-004	1.5140375763e-004	2.4853658397e-003
483915.787650	 0.811945070437	 0.114596175182	410.558441	+3.896657e-004	-9.206816e-005	+1.069745e-004	0.000000	-2.6703537442e-003	-9.0757122962e-004	+3.2288590446e-003	 0.248197317123	 0.247812092304	0.251740	6.056150e-003	6.056597e-003	6.046925e-003	1.5031722432e-004	1.5140375763e-004	2.4853658397e-003
483916.787650	 0.811945070437	 0.114596175182	410.559174	+2.502927e-004	+7.161117e-006	+9.352012e-005	0.000000	-2.6703537442e-003	-9.0757122962e-004	+3.2288590446e-003	 0.248197317123	 0.247812092304	0.251740	6.056150e-003	6.056597e-003	6.046925e-003	1.5031722432e-004	1.5140375763e-004	2.4853658397e-003
483917.787650	 0.811945070437	 0.114596175182	410.559875	+4.596321e-004	+1.139169e-004	+6.184682e-005	0.000000	-2.6703537442e-003	-9.0757122962e-004	+3.2288590446e-003	 0.248180791736	 0.247795596719	0.251723	6.056145e-003	6.056592e-003	6.046924e-003	1.5030702343e-004	1.5139406605e-004	2.4853311479e-003
483918.787650	 0.811945070437	 0.114596175182	410.560547	+3.296196e-004	-5.874378e-005	+9.131991e-005	0.000000	-2.6703537442e-003	-9.0757122962e-004	+3.2288590446e-003	 0.248180791736	 0.247795596719	0.251723	6.056145e-003	6.056592e-003	6.046924e-003	1.5030702343e-004	1.5139406605e-004	2.4853311479e-003
483919.787650	 0.811945070437	 0.114596175182	410.561279	+2.242057e-004	-1.067420e-004	+7.493198e-005	0.000000	-2.6703537442e-003	-9.0757122962e-004	+3.2288590446e-003	 0.248180791736	 0.247795596719	0.251723	6.056145e-003	6.056592e-003	6.046924e-003	1.5030702343e-004	1.5139406605e-004	2.4853311479e-003
483920.787650	 0.811945070437	 0.114596175182	410.561981	+2.713009e-004	+8.401256e-005	+8.180403e-005	0.000000	-2.6878069621e-003	-9.0757122962e-004	+3.2288590446e-003	 0.248164311051	 0.247779160738	0.251706	6.056141e-003	6.056587e-003	6.046924e-003	1.5029715723e-004	1.5138468007e-004	2.4852966890e-003
483921.787650	 0.811945068974	 0.114596173719	410.562714	+2.995385e-004	-1.429967e-004	+1.084075e-004	0.000000	-2.6878069621e-003	-9.2502450570e-004	+3.2288590446e-003	 0.248164311051	 0.247779160738	0.251706	6.056141e-003	6.056587e-003	6.046924e-003	1.5029715723e-004	1.5138468007e-004	2.4852966890e-003
483922.787650	 0.811945068974	 0.114596173719	410.563385	+4.417541e-004	-5.531660e-005	+3.541042e-005	0.000000	-2.6878069621e-003	-9.2502450570e-004	+3.2288590446e-003	 0.248164311051	 0.247779160738	0.251706	6.056141e-003	6.056587e-003	6.046924e-003	1.5029715723e-004	1.5138468007e-004	2.4852966890e-003
483923.787650	 0.811945068974	 0.114596173719	410.564056	+4.491693e-004	-1.038218e-004	-3.312971e-005	0.000000	-2.6878069621e-003	-9.2502450570e-004	+3.2288590446e-003	 0.248164311051	 0.247779160738	0.251706	6.056141e-003	6.056587e-003	6.046924e-003	1.5029715723e-004	1.5138468007e-004	2.4852966890e-003
483924.787650	 0.811945068974	 0.114596173719	410.564758	+1.707701e-004	-5.317863e-005	+3.575522e-005	0.000000	-2.6703537442e-003	-9.0757122962e-004	+3.2288590446e-003	 0.248147904873	 0.247762784362	0.251689	6.056135e-003	6.056582e-003	6.046924e-003	1.5028761118e-004	1.5137559967e-004	2.4852615315e-003
483925.787650	 0.811945068974	 0.114596173719	410.565491	+2.144289e-004	+1.222702e-005	+9.037520e-005	0.000000	-2.6529005263e-003	-9.0757122962e-004	+3.2288590446e-003	 0.248147904873	 0.247762784362	0.251689	6.056135e-003	6.056582e-003	6.046924e-003	1.5028761118e-004	1.5137559967e-004	2.4852615315e-003
483926.787650	 0.811945068974	 0.114596173719	410.566132	+2.688198e-004	-4.372539e-005	+3.549596e-005	0.000000	-2.6529005263e-003	-9.0757122962e-004	+3.2288590446e-003	 0.248147904873	 0.247762784362	0.251689	6.056135e-003	6.056582e-003	6.046924e-003	1.5028761118e-004	1.5137559967e-004	2.4852615315e-003
483927.787650	 0.811945068974	 0.114596173719	410.566803	+8.924027e-005	-4.541513e-005	+2.538939e-005	0.000000	-2.6529005263e-003	-9.0757122962e-004	+3.2288590446e-003	 0.248147904873	 0.247762784362	0.251689	6.056135e-003	6.056582e-003	6.046924e-003	1.5028761118e-004	1.5137559967e-004	2.4852615315e-003
483928.787650	 0.811945068974	 0.114596173719	410.567505	+3.913931e-004	-1.649970e-005	+9.439841e-005	0.000000	-2.6529005263e-003	-9.0757122962e-004	+3.2288590446e-003	 0.248131498694	 0.247746437788	0.251673	6.056129e-003	6.056577e-003	6.046924e-003	1.5027835616e-004	1.5136682487e-004	2.4852270726e-003
483929.787650	 0.811945068974	 0.114596173719	410.568176	+3.209985e-004	+3.190788e-005	+5.560122e-005	0.000000	-2.6529005263e-003	-9.0757122962e-004	+3.2288590446e-003	 0.248131498694	 0.247746437788	0.251673	6.056129e-003	6.056577e-003	6.046924e-003	1.5027835616e-004	1.5136682487e-004	2.4852270726e-003
483930.787650	 0.811945068974	 0.114596173719	410.568878	+4.023807e-004	-1.183440e-004	+8.435018e-005	0.000000	-2.6529005263e-003	-9.0757122962e-004	+3.2288590446e-003	 0.248131498694	 0.247746437788	0.251673	6.056129e-003	6.056577e-003	6.046924e-003	1.5027835616e-004	1.5136682487e-004	2.4852270726e-003
483931.787650	 0.811945068974	 0.114596173719	410.569580	+3.478375e-004	-9.200897e-005	+7.245805e-005	0.000000	-2.6529005263e-003	-9.0757122962e-004	+3.2288590446e-003	 0.248131498694	 0.247746437788	0.251673	6.056129e-003	6.056577e-003	6.046924e-003	1.5027835616e-004	1.5136682487e-004	2.4852270726e-003
483932.787650	 0.811945068974	 0.114596173719	410.570282	+2.689328e-004	+2.540439e-005	+8.851747e-005	0.000000	-2.6529005263e-003	-9.0757122962e-004	+3.2288590446e-003	 0.248191550374	 0.247806176543	0.251736	6.056127e-003	6.056574e-003	6.046925e-003	1.5026942128e-004	1.5135832655e-004	2.4851923808e-003
483933.787700	 0.811945068974	 0.114596173719	410.570953	+1.795980e-004	-8.192888e-005	+8.684044e-005	0.000000	-2.6703537442e-003	-9.0757122962e-004	+3.2288590446e-003	 0.248191550374	 0.247806176543	0.251736	6.056127e-003	6.056574e-003	6.046925e-003	1.5026942128e-004	1.5135832655e-004	2.4851923808e-003
483934.787700	 0.811945068974	 0.114596173719	410.571686	+3.347061e-004	-9.908259e-005	+1.214362e-004	0.000000	-2.6703537442e-003	-9.0757122962e-004	+3.2288590446e-003	 0.248191550374	 0.247806176543	0.251736	6.056127e-003	6.056574e-003	6.046925e-003	1.5026942128e-004	1.5135832655e-004	2.4851923808e-003
483935.787700	 0.811945068974	 0.114596173719	410.572388	+2.753302e-004	-1.400460e-004	-7.251876e-005	0.000000	-2.6703537442e-003	-9.0757122962e-004	+3.2288590446e-003	 0.248191550374	 0.247806176543	0.251736	6.056127e-003	6.056574e-003	6.046925e-003	1.5026942128e-004	1.5135832655e-004	2.4851923808e-003
483936.787700	 0.811945068974	 0.114596173719	410.573090	+2.963131e-004	-4.348904e-005	+7.102201e-005	0.000000	-2.6703537442e-003	-9.0757122962e-004	+3.2288590446e-003	 0.248175233603	 0.247789889574	0.251719	6.056122e-003	6.056570e-003	6.046925e-003	1.5026074834e-004	1.5135011927e-004	2.4851581547e-003
483937.787700	 0.811945068974	 0.114596173719	410.573700	+4.854974e-004	-8.273766e-005	+5.069771e-005	0.000000	-2.6703537442e-003	-9.0757122962e-004	+3.2288590446e-003	 0.248175233603	 0.247789889574	0.251719	6.056122e-003	6.056570e-003	6.046925e-003	1.5026074834e-004	1.5135011927e-004	2.4851581547e-003
483938.787700	 0.811945068974	 0.114596173719	410.574280	+3.830935e-004	-1.439484e-004	+5.902871e-005	0.000000	-2.6703537442e-003	-9.0757122962e-004	+3.2288590446e-003	 0.248175233603	 0.247789889574	0.251719	6.056122e-003	6.056570e-003	6.046925e-003	1.5026074834e-004	1.5135011927e-004	2.4851581547e-003
483939.787700	 0.811945068974	 0.114596173719	410.574890	+4.449295e-004	-9.215801e-005	+1.071310e-004	0.000000	-2.6703537442e-003	-9.0757122962e-004	+3.2288590446e-003	 0.248175233603	 0.247789889574	0.251719	6.056122e-003	6.056570e-003	6.046925e-003	1.5026074834e-004	1.5135011927e-004	2.4851581547e-003
483940.787700	 0.811945068974	 0.114596173719	410.575439	+4.034281e-004	-1.246764e-004	+6.018327e-005	0.000000	-2.6703537442e-003	-9.0757122962e-004	+3.2288590446e-003	 0.248158991337	 0.247773677111	0.251702	6.056118e-003	6.056566e-003	6.046925e-003	1.5025238099e-004	1.5134217392e-004	2.4851239286e-003
483941.787700	 0.811945068974	 0.114596173719	410.576019	+2.852920e-004	-2.908619e-005	+5.425234e-005	0.000000	-2.6703537442e-003	-9.0757122962e-004	+3.2288590446e-003	 0.248158991337	 0.247773677111	0.251702	6.056118e-003	6.056566e-003	6.046925e-003	1.5025238099e-004	1.5134217392e-004	2.4851239286e-003
483942.787700	 0.811945068974	 0.114596173719	410.576599	+3.562490e-004	+6.284600e-005	+9.370533e-005	0.000000	-2.6703537442e-003	-9.0757122962e-004	+3.2288590446e-003	 0.248158991337	 0.247773677111	0.251702	6.056118e-003	6.056566e-003	6.046925e-003	1.5025238099e-004	1.5134217392e-004	2.4851239286e-003
483943.787700	 0.811945068974	 0.114596173719	410.577179	+4.000396e-004	-1.871649e-005	+6.600848e-005	0.000000	-2.6703537442e-003	-9.0757122962e-004	+3.2288590446e-003	 0.248158991337	 0.247773677111	0.251702	6.056118e-003	6.056566e-003	6.046925e-003	1.5025238099e-004	1.5134217392e-004	2.4851239286e-003
483944.787700	 0.811945068974	 0.114596173719	410.577820	+4.438730e-004	-9.368420e-005	-2.780975e-006	0.000000	-2.6703537442e-003	-9.0757122962e-004	+3.2288590446e-003	 0.248142749071	 0.247757479548	0.251686	6.056114e-003	6.056562e-003	6.046925e-003	1.5024427557e-004	1.5133449051e-004	2.4850887712e-003
483945.787700	 0.811945067511	 0.114596173719	410.578461	+3.523540e-004	-7.192323e-005	+4.138689e-005	0.000000	-2.6703537442e-003	-9.0757122962e-004	+3.2288590446e-003	 0.248142749071	 0.247757479548	0.251686	6.056114e-003	6.056562e-003	6.046925e-003	1.5024427557e-004	1.5133449051e-004	2.4850887712e-003
483946.787700	 0.811945067511	 0.114596173719	410.579102	+4.823667e-004	-1.163378e-004	+7.482800e-005	0.000000	-2.6703537442e-003	-9.0757122962e-004	+3.2288590446e-003	 0.248142749071	 0.247757479548	0.251686	6.056114e-003	6.056562e-003	6.046925e-003	1.5024427557e-004	1.5133449051e-004	2.4850887712e-003
483947.787700	 0.811945067511	 0.114596173719	410.579712	+3.320480e-004	-4.218661e-005	+9.031421e-005	0.000000	-2.6703537442e-003	-9.0757122962e-004	+3.2288590446e-003	 0.248142749071	 0.247757479548	0.251686	6.056114e-003	6.056562e-003	6.046925e-003	1.5024427557e-004	1.5133449051e-004	2.4850887712e-003
483948.787700	 0.811945067511	 0.114596173719	410.580353	+3.347697e-004	-7.187565e-005	+8.890609e-005	0.000000	-2.6703537442e-003	-9.0757122962e-004	+3.2288590446e-003	 0.248126596212	 0.247741356492	0.251669	6.056110e-003	6.056558e-003	6.046925e-003	1.5023643209e-004	1.5132705448e-004	2.4850545451e-003
483949.787650	 0.811945067511	 0.114596173719	410.580963	+2.809651e-004	-1.090213e-004	+7.077341e-005	0.000000	-2.6703537442e-003	-9.0757122962e-004	+3.2288590446e-003	 0.248126596212	 0.247741356492	0.251669	6.056110e-003	6.056558e-003	6.046925e-003	1.5023643209e-004	1.5132705448e-004	2.4850545451e-003
483950.787700	 0.811945067511	 0.114596173719	410.581543	+3.206720e-004	-9.032027e-005	+6.989393e-005	0.000000	-2.6703537442e-003	-9.0757122962e-004	+3.2288590446e-003	 0.248126596212	 0.247741356492	0.251669	6.056110e-003	6.056558e-003	6.046925e-003	1.5023643209e-004	1.5132705448e-004	2.4850545451e-003
483951.787700	 0.811945067511	 0.114596172256	410.582153	+3.297267e-004	-1.355127e-005	+6.574191e-005	0.000000	-2.6703537442e-003	-9.0757122962e-004	+3.2288590446e-003	 0.248126596212	 0.247741356492	0.251669	6.056110e-003	6.056558e-003	6.046925e-003	1.5023643209e-004	1.5132705448e-004	2.4850545451e-003
483952.787650	 0.811945067511	 0.114596172256	410.582764	+3.746028e-004	-6.460187e-005	+9.668461e-005	0.000000	-2.6703537442e-003	-9.0757122962e-004	+3.2288590446e-003	 0.248110443354	 0.247725248337	0.251653	6.056106e-003	6.056554e-003	6.046925e-003	1.5022885054e-004	1.5131988039e-004	2.4850207847e-003
483953.787700	 0.811945067511	 0.114596172256	410.583374	+4.044570e-004	-1.460043e-004	+7.975761e-005	0.000000	-2.6703537442e-003	-9.0757122962e-004	+3.2288590446e-003	 0.248110443354	 0.247725248337	0.251653	6.056106e-003	6.056554e-003	6.046925e-003	1.5022885054e-004	1.5131988039e-004	2.4850207847e-003
483954.787700	 0.811945067511	 0.114596172256	410.583954	+4.478952e-004	-4.762000e-005	+6.072024e-005	0.000000	-2.6703537442e-003	-9.0757122962e-004	+3.2288590446e-003	 0.248110443354	 0.247725248337	0.251653	6.056106e-003	6.056554e-003	6.046925e-003	1.5022885054e-004	1.5131988039e-004	2.4850207847e-003
483955.787700	 0.811945067511	 0.114596172256	410.584534	+4.697418e-004	-1.858498e-004	+2.470615e-005	0.000000	-2.6703537442e-003	-9.0757122962e-004	+3.2288590446e-003	 0.248110443354	 0.247725248337	0.251653	6.056106e-003	6.056554e-003	6.046925e-003	1.5022885054e-004	1.5131988039e-004	2.4850207847e-003
483956.787700	 0.811945067511	 0.114596172256	410.585144	+4.788465e-004	-2.587086e-004	+3.851810e-005	0.000000	-2.6703537442e-003	-9.0757122962e-004	+3.2288590446e-003	 0.248094335198	 0.247709169984	0.251636	6.056101e-003	6.056551e-003	6.046924e-003	1.5022150183e-004	1.5131292457e-004	2.4849867914e-003
483957.787700	 0.811945067511	 0.114596172256	410.585693	+3.910792e-004	-1.822989e-004	+1.507151e-005	0.000000	-2.6703537442e-003	-9.0757122962e-004	+3.2288590446e-003	 0.248094335198	 0.247709169984	0.251636	6.056101e-003	6.056551e-003	6.046924e-003	1.5022150183e-004	1.5131292457e-004	2.4849867914e-003
483958.787700	 0.811945067511	 0.114596172256	410.586243	+4.723907e-004	+1.170370e-004	+2.411147e-004	0.000000	-2.6878069621e-003	-9.0757122962e-004	+3.2288590446e-003	 0.248094335198	 0.247709169984	0.251636	6.056101e-003	6.056551e-003	6.046924e-003	1.5022150183e-004	1.5131292457e-004	2.4849867914e-003
483959.787700	 0.811945067511	 0.114596172256	410.586731	+3.462103e-004	-9.386354e-005	+1.972613e-005	0.000000	-2.6703537442e-003	-9.0757122962e-004	+3.2288590446e-003	 0.248078271747	 0.247693151236	0.251620	6.056098e-003	6.056548e-003	6.046924e-003	1.5021441504e-004	1.5130621614e-004	2.4849534966e-003
483960.787700	 0.811945067511	 0.114596172256	410.587280	+4.684627e-004	-1.637692e-004	+4.391222e-005	0.000000	-2.6529005263e-003	-9.0757122962e-004	+3.2288590446e-003	 0.248078271747	 0.247693151236	0.251620	6.056098e-003	6.056548e-003	6.046924e-003	1.5021441504e-004	1.5130621614e-004	2.4849534966e-003
483961.787700	 0.811945067511	 0.114596172256	410.587799	+3.816622e-004	-1.067462e-004	+8.118287e-005	0.000000	-2.6529005263e-003	-9.0757122962e-004	+3.2288590446e-003	 0.248078271747	 0.247693151236	0.251620	6.056098e-003	6.056548e-003	6.046924e-003	1.5021441504e-004	1.5130621614e-004	2.4849534966e-003
483962.787700	 0.811945067511	 0.114596172256	410.588379	+4.615115e-004	-1.215671e-004	+4.310627e-005	0.000000	-2.6529005263e-003	-9.0757122962e-004	+3.2288590446e-003	 0.248078271747	 0.247693151236	0.251620	6.056098e-003	6.056548e-003	6.046924e-003	1.5021441504e-004	1.5130621614e-004	2.4849534966e-003
483963.787700	 0.811945067511	 0.114596172256	410.588959	+4.750349e-004	-1.962193e-004	+1.564336e-005	0.000000	-2.6529005263e-003	-9.0757122962e-004	+3.2288590446e-003	 0.248062282801	 0.247677192092	0.251604	6.056095e-003	6.056544e-003	6.046924e-003	1.5020754654e-004	1.5129972599e-004	2.4849190377e-003
483964.787700	 0.811945067511	 0.114596172256	410.589508	+4.180968e-004	-4.604151e-005	+6.021034e-005	0.000000	-2.6529005263e-003	-9.0757122962e-004	+3.2288590446e-003	 0.248062282801	 0.247677192092	0.251604	6.056095e-003	6.056544e-003	6.046924e-003	1.5020754654e-004	1.5129972599e-004	2.4849190377e-003
483965.787700	 0.811945066048	 0.114596172256	410.590088	+4.641101e-004	-1.154463e-004	+1.023023e-004	0.000000	-2.6529005263e-003	-9.0757122962e-004	+3.2288590446e-003	 0.248062282801	 0.247677192092	0.251604	6.056095e-003	6.056544e-003	6.046924e-003	1.5020754654e-004	1.5129972599e-004	2.4849190377e-003
483966.787700	 0.811945066048	 0.114596172256	410.590668	+3.712789e-004	-1.350870e-004	+5.450548e-005	0.000000	-2.6529005263e-003	-9.0757122962e-004	+3.2288590446e-003	 0.248062282801	 0.247677192092	0.251604	6.056095e-003	6.056544e-003	6.046924e-003	1.5020754654e-004	1.5129972599e-004	2.4849190377e-003
483967.787750	 0.811945066048	 0.114596172256	410.591248	+3.480032e-004	-4.093552e-005	+1.120179e-004	0.000000	-2.6529005263e-003	-9.0757122962e-004	+3.2288590446e-003	 0.248046293855	 0.247661247849	0.251587	6.056090e-003	6.056541e-003	6.046924e-003	1.5020092542e-004	1.5129345411e-004	2.4848852772e-003
483968.787750	 0.811945066048	 0.114596172256	410.591797	+3.870279e-004	-4.007590e-005	-3.702936e-005	0.000000	-2.6529005263e-003	-9.0757122962e-004	+3.2288590446e-003	 0.248046293855	 0.247661247849	0.251587	6.056090e-003	6.056541e-003	6.046924e-003	1.5020092542e-004	1.5129345411e-004	2.4848852772e-003
483969.787750	 0.811945066048	 0.114596172256	410.592346	+4.894596e-004	-6.267698e-005	+7.110545e-005	0.000000	-2.6529005263e-003	-9.0757122962e-004	+3.2288590446e-003	 0.248046293855	 0.247661247849	0.251587	6.056090e-003	6.056541e-003	6.046924e-003	1.5020092542e-004	1.5129345411e-004	2.4848852772e-003
483970.787750	 0.811945066048	 0.114596172256	410.592865	+4.051763e-004	-8.620801e-005	-6.491094e-005	0.000000	-2.6878069621e-003	-9.2502450570e-004	+3.2463124953e-003	 0.248046293855	 0.247661247849	0.251587	6.056090e-003	6.056541e-003	6.046924e-003	1.5020092542e-004	1.5129345411e-004	2.4848852772e-003
483971.787750	 0.811945066048	 0.114596172256	410.593414	+5.187895e-004	-1.309446e-004	+1.591944e-005	0.000000	-2.6878069621e-003	-9.0757122962e-004	+3.2463124953e-003	 0.248106688261	 0.247721329331	0.251651	6.056089e-003	6.056538e-003	6.046925e-003	1.5019450802e-004	1.5128738596e-004	2.4848512840e-003
483972.787750	 0.811945066048	 0.114596172256	410.593933	+4.571668e-004	-1.622671e-004	+3.164923e-005	0.000000	-2.6703537442e-003	-9.0757122962e-004	+3.2463124953e-003	 0.248106688261	 0.247721329331	0.251651	6.056089e-003	6.056538e-003	6.046925e-003	1.5019450802e-004	1.5128738596e-004	2.4848512840e-003
483973.787750	 0.811945066048	 0.114596172256	410.594513	+4.099714e-004	-1.247346e-004	+1.014045e-004	0.000000	-2.6703537442e-003	-9.0757122962e-004	+3.2463124953e-003	 0.248106688261	 0.247721329331	0.251651	6.056089e-003	6.056538e-003	6.046925e-003	1.5019450802e-004	1.5128738596e-004	2.4848512840e-003
483974.787750	 0.811945066048	 0.114596172256	410.595093	+4.124793e-004	+9.266373e-007	+1.148734e-004	0.000000	-2.6703537442e-003	-9.0757122962e-004	+3.2463124953e-003	 0.248106688261	 0.247721329331	0.251651	6.056089e-003	6.056538e-003	6.046925e-003	1.5019450802e-004	1.5128738596e-004	2.4848512840e-003
483975.787750	 0.811945066048	 0.114596172256	410.595642	+3.135346e-004	-1.157415e-004	+6.947669e-005	0.000000	-2.6703537442e-003	-9.0757122962e-004	+3.2463124953e-003	 0.248090773821	 0.247705444694	0.251634	6.056085e-003	6.056535e-003	6.046925e-003	1.5018830891e-004	1.5128153609e-004	2.4848172907e-003
483976.787750	 0.811945066048	 0.114596172256	410.596222	+3.990469e-004	-1.838560e-004	+5.274501e-005	0.000000	-2.6703537442e-003	-9.0757122962e-004	+3.2463124953e-003	 0.248090773821	 0.247705444694	0.251634	6.056085e-003	6.056535e-003	6.046925e-003	1.5018830891e-004	1.5128153609e-004	2.4848172907e-003
483977.787750	 0.811945066048	 0.114596172256	410.596771	+3.315059e-004	-3.132933e-005	+5.350316e-005	0.000000	-2.6703537442e-003	-9.0757122962e-004	+3.2463124953e-003	 0.248090773821	 0.247705444694	0.251634	6.056085e-003	6.056535e-003	6.046925e-003	1.5018830891e-004	1.5128153609e-004	2.4848172907e-003
